{
  "generated": "2026-06",
  "note": "Major Israeli cities with REAL public GeoCoordinates (WGS84 decimal degrees) and official administrative district. Used for /compare/[service]/[city] geo pages. Slugs are URL-safe ASCII transliterations. No fabricated data — coordinates are public knowledge; districts are Israel's six official מחוזות (plus יו\"ש).",
  "cities": [
    { "slug": "jerusalem", "name": "ירושלים", "district": "מחוז ירושלים", "lat": 31.7683, "lng": 35.2137 },
    { "slug": "tel-aviv", "name": "תל אביב-יפו", "district": "מחוז תל אביב", "lat": 32.0853, "lng": 34.7818 },
    { "slug": "haifa", "name": "חיפה", "district": "מחוז חיפה", "lat": 32.7940, "lng": 34.9896 },
    { "slug": "rishon-lezion", "name": "ראשון לציון", "district": "מחוז המרכז", "lat": 31.9730, "lng": 34.8066 },
    { "slug": "petah-tikva", "name": "פתח תקווה", "district": "מחוז המרכז", "lat": 32.0840, "lng": 34.8878 },
    { "slug": "ashdod", "name": "אשדוד", "district": "מחוז הדרום", "lat": 31.8014, "lng": 34.6435 },
    { "slug": "netanya", "name": "נתניה", "district": "מחוז המרכז", "lat": 32.3215, "lng": 34.8532 },
    { "slug": "beer-sheva", "name": "באר שבע", "district": "מחוז הדרום", "lat": 31.2518, "lng": 34.7913 },
    { "slug": "bnei-brak", "name": "בני ברק", "district": "מחוז תל אביב", "lat": 32.0807, "lng": 34.8338 },
    { "slug": "holon", "name": "חולון", "district": "מחוז תל אביב", "lat": 32.0167, "lng": 34.7792 },
    { "slug": "ramat-gan", "name": "רמת גן", "district": "מחוז תל אביב", "lat": 32.0700, "lng": 34.8235 },
    { "slug": "rehovot", "name": "רחובות", "district": "מחוז המרכז", "lat": 31.8928, "lng": 34.8113 },
    { "slug": "ashkelon", "name": "אשקלון", "district": "מחוז הדרום", "lat": 31.6688, "lng": 34.5715 },
    { "slug": "bat-yam", "name": "בת ים", "district": "מחוז תל אביב", "lat": 32.0171, "lng": 34.7457 },
    { "slug": "beit-shemesh", "name": "בית שמש", "district": "מחוז ירושלים", "lat": 31.7497, "lng": 34.9886 },
    { "slug": "kfar-saba", "name": "כפר סבא", "district": "מחוז המרכז", "lat": 32.1750, "lng": 34.9070 },
    { "slug": "herzliya", "name": "הרצליה", "district": "מחוז תל אביב", "lat": 32.1656, "lng": 34.8441 },
    { "slug": "hadera", "name": "חדרה", "district": "מחוז חיפה", "lat": 32.4340, "lng": 34.9196 },
    { "slug": "modiin", "name": "מודיעין-מכבים-רעות", "district": "מחוז המרכז", "lat": 31.8980, "lng": 35.0104 },
    { "slug": "nazareth", "name": "נצרת", "district": "מחוז הצפון", "lat": 32.7021, "lng": 35.2978 },
    { "slug": "lod", "name": "לוד", "district": "מחוז המרכז", "lat": 31.9514, "lng": 34.8950 },
    { "slug": "ramla", "name": "רמלה", "district": "מחוז המרכז", "lat": 31.9288, "lng": 34.8667 },
    { "slug": "raanana", "name": "רעננה", "district": "מחוז המרכז", "lat": 32.1847, "lng": 34.8708 },
    { "slug": "rahat", "name": "רהט", "district": "מחוז הדרום", "lat": 31.3925, "lng": 34.7544 },
    { "slug": "nahariya", "name": "נהריה", "district": "מחוז הצפון", "lat": 33.0059, "lng": 35.0982 },
    { "slug": "givatayim", "name": "גבעתיים", "district": "מחוז תל אביב", "lat": 32.0721, "lng": 34.8125 },
    { "slug": "hod-hasharon", "name": "הוד השרון", "district": "מחוז המרכז", "lat": 32.1500, "lng": 34.8892 },
    { "slug": "kiryat-ata", "name": "קריית אתא", "district": "מחוז חיפה", "lat": 32.8000, "lng": 35.1000 },
    { "slug": "kiryat-gat", "name": "קריית גת", "district": "מחוז הדרום", "lat": 31.6100, "lng": 34.7642 },
    { "slug": "eilat", "name": "אילת", "district": "מחוז הדרום", "lat": 29.5577, "lng": 34.9519 },
    { "slug": "rosh-haayin", "name": "ראש העין", "district": "מחוז המרכז", "lat": 32.0956, "lng": 34.9568 },
    { "slug": "afula", "name": "עפולה", "district": "מחוז הצפון", "lat": 32.6078, "lng": 35.2897 },
    { "slug": "nes-ziona", "name": "נס ציונה", "district": "מחוז המרכז", "lat": 31.9293, "lng": 34.7986 },
    { "slug": "akko", "name": "עכו", "district": "מחוז הצפון", "lat": 32.9281, "lng": 35.0818 },
    { "slug": "tiberias", "name": "טבריה", "district": "מחוז הצפון", "lat": 32.7959, "lng": 35.5300 },
    { "slug": "karmiel", "name": "כרמיאל", "district": "מחוז הצפון", "lat": 32.9186, "lng": 35.2952 },
    { "slug": "kiryat-bialik", "name": "קריית ביאליק", "district": "מחוז חיפה", "lat": 32.8333, "lng": 35.0833 },
    { "slug": "yavne", "name": "יבנה", "district": "מחוז המרכז", "lat": 31.8775, "lng": 34.7392 },
    { "slug": "dimona", "name": "דימונה", "district": "מחוז הדרום", "lat": 31.0686, "lng": 35.0331 },
    { "slug": "umm-al-fahm", "name": "אום אל-פחם", "district": "מחוז חיפה", "lat": 32.5197, "lng": 35.1525 },
    { "slug": "sderot", "name": "שדרות", "district": "מחוז הדרום", "lat": 31.5250, "lng": 34.5969 },
    { "slug": "ariel", "name": "אריאל", "district": "יהודה ושומרון", "lat": 32.1056, "lng": 35.1872 }
  ]
}
